[
    {
        "#": 1,
        "latitude": 35.7112,
        "longitude": 139.77377,
        "kitsuenjo_name": "uenokouenmaekoubanura"
    },
    {
        "#": 2,
        "latitude": 35.71163,
        "longitude": 139.77628,
        "kitsuenjo_name": "JRuenoeki(hirokouziguchi)pedesutoriandekkiue"
    },
    {
        "#": 3,
        "latitude": 35.71168,
        "longitude": 139.77726,
        "kitsuenjo_name": "JRuenoeki(asakusaguchi)pedesutoriandekkiue"
    },
    {
        "#": 4,
        "latitude": 35.71361,
        "longitude": 139.79737,
        "kitsuenjo_name": "sennsouzikeidai1nisonnbutsumaehigashi"
    },
    {
        "#": 5,
        "latitude": 35.71411,
        "longitude": 139.79726,
        "kitsuenjo_name": "sennsouzikeidai2kannonmaekeibihasyutsuzyokita"
    },
    {
        "#": 6,
        "latitude": 35.71559,
        "longitude": 139.79706,
        "kitsuenjo_name": "sennsouzikeidai3kitagawatoireminami"
    },
    {
        "#": 7,
        "latitude": 35.71528,
        "longitude": 139.79597,
        "kitsuenjo_name": "sennsouzikeidai4hatobasuchuusyazyounishi"
    },
    {
        "#": 8,
        "latitude": 35.71248,
        "longitude": 139.78067,
        "kitsuenjo_name": "koutoukukouennai"
    },
    {
        "#": 9,
        "latitude": 35.71358,
        "longitude": 139.76573,
        "kitsuenjo_name": "ikenohatanichoumekousyutoireyoko"
    },
    {
        "#": 10,
        "latitude": 35.712724,
        "longitude": 139.779469,
        "kitsuenjo_name": "honchousyachuusyazyoudeguchiyoko"
    },
    {
        "#": 11,
        "latitude": 35.717866,
        "longitude": 139.804235,
        "kitsuenjo_name": "taitouribasaidosupotsusentataiikukanmae"
    },
    {
        "#": 12,
        "latitude": 35.727847,
        "longitude": 139.805037,
        "kitsuenjo_name": "kiyokawa"
    },
    {
        "#": 13,
        "latitude": 35.721114,
        "longitude": 139.779621,
        "kitsuenjo_name": "uguisudanikouennai"
    },
    {
        "#": 14,
        "latitude": 35.714185,
        "longitude": 139.77416,
        "kitsuenjo_name": "uenokuenmasaokashikikinenkyuuzyouyoko"
    },
    {
        "#": 15,
        "latitude": 35.716998,
        "longitude": 139.789717,
        "kitsuenjo_name": "kinryuukouennai"
    },
    {
        "#": 16,
        "latitude": 35.712469,
        "longitude": 139.800097,
        "kitsuenjo_name": "sumidakouennai"
    },
    {
        "#": 17,
        "latitude": 35.69849,
        "longitude": 139.78759,
        "kitsuenjo_name": "pasupaasakusabashi"
    },
    {
        "#": 18,
        "latitude": 35.70069,
        "longitude": 139.78038,
        "kitsuenjo_name": "famirimatotaitouicchoumeten"
    },
    {
        "#": 19,
        "latitude": 35.70759,
        "longitude": 139.77987,
        "kitsuenjo_name": "sebunnirebunhigashiuenoichoumeten"
    },
    {
        "#": 20,
        "latitude": 35.71107,
        "longitude": 139.78613,
        "kitsuenjo_name": "sebunnirebuntaitoumatsugayaichoumeten"
    },
    {
        "#": 21,
        "latitude": 35.70956,
        "longitude": 139.79066,
        "kitsuenjo_name": "sebunirebuntawaramachiekimaeten"
    },
    {
        "#": 22,
        "latitude": 35.70564,
        "longitude": 139.77756,
        "kitsuenjo_name": "sumokazupisuinmimatsusyobou"
    },
    {
        "#": 23,
        "latitude": 35.70725,
        "longitude": 139.77768,
        "kitsuenjo_name": "famirimatotaitouyonchoumeten"
    },
    {
        "#": 24,
        "latitude": 35.71284,
        "longitude": 139.778,
        "kitsuenjo_name": "pasupaueno"
    },
    {
        "#": 25,
        "latitude": 35.70902,
        "longitude": 139.77537,
        "kitsuenjo_name": "pasupaokachimachi"
    },
    {
        "#": 26,
        "latitude": 35.710627,
        "longitude": 139.79721,
        "kitsuenjo_name": "sumokinguandokohibasumoko"
    },
    {
        "#": 27,
        "latitude": 35.709078,
        "longitude": 139.77454,
        "kitsuenjo_name": "ameyokosentabirukitsuenzyo"
    },
    {
        "#": 28,
        "latitude": 35.712137,
        "longitude": 139.78738,
        "kitsuenjo_name": "matsubakouen"
    }
]