[
    {
        "num": 1,
        "latitude": 35.7112,
        "longtitude": 139.77377,
        "kitsuenjo_name": "上野公園uenokouenmaekoubanura"
    },
    {
        "num": 2,
        "latitude": 35.71163,
        "longtitude": 139.77628,
        "kitsuenjo_name": "JR上野駅JRuenoeki(hirokouziguchi)pedesutoriandekkiue"
    },
    {
        "num": 3,
        "latitude": 35.71168,
        "longtitude": 139.77726,
        "kitsuenjo_name": "JR上野駅JRuenoeki(asakusaguchi)pedesutoriandekkiue"
    },
    {
        "num": 4,
        "latitude": 35.71361,
        "longtitude": 139.79737,
        "kitsuenjo_name": "浅草寺境内sennsouzikeidai1nisonnbutsumaehigashi"
    },
    {
        "num": 5,
        "latitude": 35.71411,
        "longtitude": 139.79726,
        "kitsuenjo_name": "浅草寺英題sennsouzikeidai2kannonmaekeibihasyutsuzyokita"
    },
    {
        "num": 6,
        "latitude": 35.71559,
        "longtitude": 139.79706,
        "kitsuenjo_name": "浅草寺境内sennsouzikeidai3kitagawatoireminami"
    },
    {
        "num": 7,
        "latitude": 35.71528,
        "longtitude": 139.79597,
        "kitsuenjo_name": "浅草寺境内sennsouzikeidai4hatobasuchuusyazyounishi"
    },
    {
        "num": 8,
        "latitude": 35.71248,
        "longtitude": 139.78067,
        "kitsuenjo_name": "江東区公園内koutoukukouennai"
    },
    {
        "num": 9,
        "latitude": 35.71358,
        "longtitude": 139.76573,
        "kitsuenjo_name": "池之端二丁目ikenohatanichoumekousyutoireyoko"
    },
    {
        "num": 10,
        "latitude": 35.712724,
        "longtitude": 139.779469,
        "kitsuenjo_name": "本庁舎駐車場honchousyachuusyazyoudeguchiyoko"
    },
    {
        "num": 11,
        "latitude": 35.717866,
        "longtitude": 139.804235,
        "kitsuenjo_name": "台東リバサいtaitouribasaidosupotsusentataiikukanmae"
    },
    {
        "num": 12,
        "latitude": 35.727847,
        "longtitude": 139.805037,
        "kitsuenjo_name": "清川kiyokawa"
    },
    {
        "num": 13,
        "latitude": 35.721114,
        "longtitude": 139.779621,
        "kitsuenjo_name": "鶯谷uguisudanikouennai"
    },
    {
        "num": 14,
        "latitude": 35.714185,
        "longtitude": 139.77416,
        "kitsuenjo_name": "上のuenokuenmasaokashikikinenkyuuzyouyoko"
    },
    {
        "num": 15,
        "latitude": 35.716998,
        "longtitude": 139.789717,
        "kitsuenjo_name": "金龍kinryuukouennai"
    },
    {
        "num": 16,
        "latitude": 35.712469,
        "longtitude": 139.800097,
        "kitsuenjo_name": "隅田公園内sumidakouennai"
    },
    {
        "num": 17,
        "latitude": 35.69849,
        "longtitude": 139.78759,
        "kitsuenjo_name": "パスぱpasupaasakusabashi"
    },
    {
        "num": 18,
        "latitude": 35.70069,
        "longtitude": 139.78038,
        "kitsuenjo_name": "ファミマfamirimatotaitouicchoumeten"
    },
    {
        "num": 19,
        "latitude": 35.70759,
        "longtitude": 139.77987,
        "kitsuenjo_name": "セブンsebunnirebunhigashiuenoichoumeten"
    },
    {
        "num": 20,
        "latitude": 35.71107,
        "longtitude": 139.78613,
        "kitsuenjo_name": "セブンsebunnirebuntaitoumatsugayaichoumeten"
    },
    {
        "num": 21,
        "latitude": 35.70956,
        "longtitude": 139.79066,
        "kitsuenjo_name": "セブンsebunirebuntawaramachiekimaeten"
    },
    {
        "num": 22,
        "latitude": 35.70564,
        "longtitude": 139.77756,
        "kitsuenjo_name": "すもかずピス位にsumokazupisuinmimatsusyobou"
    },
    {
        "num": 23,
        "latitude": 35.70725,
        "longtitude": 139.77768,
        "kitsuenjo_name": "ファミリーマートfamirimatotaitouyonchoumeten"
    },
    {
        "num": 24,
        "latitude": 35.71284,
        "longtitude": 139.778,
        "kitsuenjo_name": "パスぱpasupaueno"
    },
    {
        "num": 25,
        "latitude": 35.70902,
        "longtitude": 139.77537,
        "kitsuenjo_name": "パスパオpasupaokachimachi"
    },
    {
        "num": 26,
        "latitude": 35.710627,
        "longtitude": 139.79721,
        "kitsuenjo_name": "あれsumokinguandokohibasumoko"
    },
    {
        "num": 27,
        "latitude": 35.709078,
        "longtitude": 139.77454,
        "kitsuenjo_name": "アメ横ameyokosentabirukitsuenzyo"
    },
    {
        "num": 28,
        "latitude": 35.712137,
        "longtitude": 139.78738,
        "kitsuenjo_name": "松葉公園matsubakouen"
    }
]